{"type":"FeatureCollection","crs":{"type":"name","properties":{"name":"EPSG:4326"}},"features":[{"type":"Feature","id":1,"geometry":{"type":"Point","coordinates":[-84.2953761869187,33.7745235021313]},"properties":{"OBJECTID":1,"STATION":"Decatur","Station_Code":"E6","Web_address":"https://www.itsmarta.com/Decatur.aspx","Parking_Spaces":0,"Parking":"No","Street":"400 Church St","City":"Decatur","Zip":30030,"GlobalID":"65feb604-07a6-4b89-b4f2-4dbe4978e4bb","LABEL":"MARTA Decatur Station"}},{"type":"Feature","id":2,"geometry":{"type":"Point","coordinates":[-84.2823375476387,33.7750308577767]},"properties":{"OBJECTID":2,"STATION":"Avondale","Station_Code":"E7","Web_address":"https://www.itsmarta.com/Avondale.aspx","Parking_Spaces":734,"Parking":"Yes","Street":"915 E Ponce de Leon Ave","City":"Decatur","Zip":30030,"GlobalID":"5d51b948-7223-4a8f-af49-d5094aa2815d","LABEL":"MARTA Avondale Station"}},{"type":"Feature","id":3,"geometry":{"type":"Point","coordinates":[-84.3063243767644,33.8874309360438]},"properties":{"OBJECTID":3,"STATION":"Chamblee","Station_Code":"NE9","Web_address":"https://www.itsmarta.com/Chamblee.aspx","Parking_Spaces":1149,"Parking":"Yes","Street":"5200 New Peachtree Road","City":"Atlanta","Zip":30341,"GlobalID":"a1bd62aa-3726-44f0-ad87-ddcbb499dd81","LABEL":"MARTA Chamblee Station"}},{"type":"Feature","id":4,"geometry":{"type":"Point","coordinates":[-84.4289440309677,33.7003314342357]},"properties":{"OBJECTID":4,"STATION":"Lakewood-Ft. McPherson","Station_Code":"S4","Web_address":"https://www.itsmarta.com/Lakewood.aspx","Parking_Spaces":1048,"Parking":"Yes","Street":"2020 Lee St SW","City":"Atlanta","Zip":30310,"GlobalID":"ecba953e-5cc2-4f75-a45c-1058a0a4bf59","LABEL":"MARTA Lakewood-Ft. McPherson Station"}},{"type":"Feature","id":5,"geometry":{"type":"Point","coordinates":[-84.4251598514482,33.717032182767]},"properties":{"OBJECTID":5,"STATION":"Oakland City","Station_Code":"S3","Web_address":"https://www.itsmarta.com/Oakland-City.aspx","Parking_Spaces":443,"Parking":"Yes","Street":"1400 Lee St SW","City":"Atlanta","Zip":30310,"GlobalID":"59578a85-a32d-4d34-9b34-0cdf0ab77444","LABEL":"MARTA Oakland City Station"}},{"type":"Feature","id":6,"geometry":{"type":"Point","coordinates":[-84.4136699813713,33.7358233864717]},"properties":{"OBJECTID":6,"STATION":"West End","Station_Code":"S2","Web_address":"https://www.itsmarta.com/West-End.aspx","Parking_Spaces":472,"Parking":"Yes","Street":"680 Lee St SW","City":"Atlanta","Zip":30310,"GlobalID":"30965596-533a-4daa-984e-fc4c78ac0846","LABEL":"MARTA West End Station"}},{"type":"Feature","id":7,"geometry":{"type":"Point","coordinates":[-84.3868068781822,33.7890842019611]},"properties":{"OBJECTID":7,"STATION":"Arts Center","Station_Code":"N5","Web_address":"https://www.itsmarta.com/Arts-Center.aspx","Parking_Spaces":33,"Parking":"Yes","Street":"1255 West Peachtree St","City":"Atlanta","Zip":30309,"GlobalID":"eb4d3626-57fe-4a2d-be70-efb8949ae584","LABEL":"MARTA Arts Center Station"}},{"type":"Feature","id":8,"geometry":{"type":"Point","coordinates":[-84.3695339250253,33.8224856990196]},"properties":{"OBJECTID":8,"STATION":"Lindbergh Center","Station_Code":"N6","Web_address":"https://www.itsmarta.com/Lindbergh.aspx","Parking_Spaces":2519,"Parking":"Yes","Street":"2424 Piedmont Rd NE","City":"Atlanta","Zip":30324,"GlobalID":"4474c971-f919-4e14-a88e-cb129d91b578","LABEL":"MARTA Lindbergh Center Station"}},{"type":"Feature","id":9,"geometry":{"type":"Point","coordinates":[-84.2519191432005,33.7725970818004]},"properties":{"OBJECTID":9,"STATION":"Kensington","Station_Code":"E8","Web_address":"https://www.itsmarta.com/Kensington.aspx","Parking_Spaces":1962,"Parking":"Yes","Street":"3350 Kensington Rd","City":"Decatur","Zip":30032,"GlobalID":"216ed651-7430-4955-97fd-b9d755724a37","LABEL":"MARTA Kensington Station"}},{"type":"Feature","id":10,"geometry":{"type":"Point","coordinates":[-84.3858455715894,33.7499797315832]},"properties":{"OBJECTID":10,"STATION":"Georgia State","Station_Code":"E1","Web_address":"https://www.itsmarta.com/Georgia-State.aspx","Parking_Spaces":0,"Parking":"No","Street":"170 Piedmont Ave SE","City":"Atlanta","Zip":30303,"GlobalID":"c8bfd3be-41a3-434e-90be-87a585e227a2","LABEL":"MARTA Georgia State Station"}},{"type":"Feature","id":11,"geometry":{"type":"Point","coordinates":[-84.3755458861468,33.7498080710845]},"properties":{"OBJECTID":11,"STATION":"King Memorial","Station_Code":"E2","Web_address":"https://www.itsmarta.com/King-Memorial.aspx","Parking_Spaces":0,"Parking":"No","Street":"377 Decatur St SE","City":"Atlanta","Zip":30312,"GlobalID":"1cc24c5d-9c1e-4cdf-ae54-d66451df345e","LABEL":"MARTA King Memorial Station"}},{"type":"Feature","id":12,"geometry":{"type":"Point","coordinates":[-84.3527568783678,33.7574107649203]},"properties":{"OBJECTID":12,"STATION":"Inman Park-Reynoldstown","Station_Code":"E3","Web_address":"https://www.itsmarta.com/Inman-Park.aspx","Parking_Spaces":401,"Parking":"Yes","Street":"1055 DeKalb Ave NE","City":"Atlanta","Zip":30307,"GlobalID":"85d3e099-5588-4734-bdf3-74ce0ef1ed48","LABEL":"MARTA Inman Park-Reynoldstown Station"}},{"type":"Feature","id":13,"geometry":{"type":"Point","coordinates":[-84.3398860865874,33.7618052971605]},"properties":{"OBJECTID":13,"STATION":"Edgewood-Candler Park","Station_Code":"E4","Web_address":"https://www.itsmarta.com/Edgewood-Candler-Park.aspx","Parking_Spaces":611,"Parking":"Yes","Street":"1475 DeKalb Ave NE","City":"Atlanta","Zip":30307,"GlobalID":"32281b03-42b3-48e9-9fe9-457574e45d77","LABEL":"MARTA Edgewood-Candler Park Station"}},{"type":"Feature","id":14,"geometry":{"type":"Point","coordinates":[-84.3130534980389,33.7651126412941]},"properties":{"OBJECTID":14,"STATION":"East Lake","Station_Code":"E5","Web_address":"https://www.itsmarta.com/East-Lake.aspx","Parking_Spaces":1101,"Parking":"Yes","Street":"2260 College Ave","City":"Atlanta","Zip":30307,"GlobalID":"bbe357e0-0e2d-4a71-92ea-de3182c1327a","LABEL":"MARTA East Lake Station"}},{"type":"Feature","id":15,"geometry":{"type":"Point","coordinates":[-84.2296641921564,33.7697398736949]},"properties":{"OBJECTID":15,"STATION":"Indian Creek","Station_Code":"E9","Web_address":"https://www.itsmarta.com/Indian-Creek.aspx","Parking_Spaces":2364,"Parking":"Yes","Street":"3901 Durham Park Rd","City":"Stone Mountain","Zip":30083,"GlobalID":"fffa961f-2364-4cd0-bb36-ddf1e8b81534","LABEL":"MARTA Indian Creek Station"}},{"type":"Feature","id":16,"geometry":{"type":"Point","coordinates":[-84.4037855939586,33.7564844720647]},"properties":{"OBJECTID":16,"STATION":"Vine City","Station_Code":"W2","Web_address":"https://www.itsmarta.com/Vine-City.aspx","Parking_Spaces":0,"Parking":"No","Street":"502 Rhodes St NW","City":"Atlanta","Zip":30314,"GlobalID":"507e27f6-1258-48e6-8421-d6e07fe0c311","LABEL":"MARTA Vine City Station"}},{"type":"Feature","id":17,"geometry":{"type":"Point","coordinates":[-84.4167904058627,33.7562816120233]},"properties":{"OBJECTID":17,"STATION":"Ashby","Station_Code":"W3","Web_address":"https://www.itsmarta.com/Ashby.aspx","Parking_Spaces":142,"Parking":"Yes","Street":"65 Joseph E Lowery Blvd","City":"Atlanta","Zip":30314,"GlobalID":"4640d7db-5b4c-47a1-b250-397e43b728bf","LABEL":"MARTA Ashby Station"}},{"type":"Feature","id":18,"geometry":{"type":"Point","coordinates":[-84.428936405425,33.7721469405754]},"properties":{"OBJECTID":18,"STATION":"Bankhead","Station_Code":"P4","Web_address":"https://www.itsmarta.com/Bankhead.aspx","Parking_Spaces":11,"Parking":"Yes","Street":"1335 Donald Hollowell Pkwy","City":"Atlanta","Zip":30318,"GlobalID":"b653356d-421d-4494-8643-c5a651bf7e2c","LABEL":"MARTA Bankhead Station"}},{"type":"Feature","id":19,"geometry":{"type":"Point","coordinates":[-84.4453853838783,33.7532489254901]},"properties":{"OBJECTID":19,"STATION":"West Lake","Station_Code":"W4","Web_address":"https://www.itsmarta.com/West-Lake.aspx","Parking_Spaces":391,"Parking":"Yes","Street":"80 Anderson Ave SW","City":"Atlanta","Zip":30314,"GlobalID":"aae590c7-133c-4d07-8179-850b70a5d0dc","LABEL":"MARTA West Lake Station"}},{"type":"Feature","id":20,"geometry":{"type":"Point","coordinates":[-84.4704403227418,33.7544124073381]},"properties":{"OBJECTID":20,"STATION":"Hamilton E. Holmes","Station_Code":"W5","Web_address":"https://www.itsmarta.com/Hamilton-E-Holmes.aspx","Parking_Spaces":1436,"Parking":"Yes","Street":"70 Hamilton E Holmes Dr NW","City":"Atlanta","Zip":30311,"GlobalID":"741b99e2-a7fd-4594-bce6-805f77bc4377","LABEL":"MARTA Hamilton E. Holmes Station"}},{"type":"Feature","id":21,"geometry":{"type":"Point","coordinates":[-84.3864559255166,33.7807643453147]},"properties":{"OBJECTID":21,"STATION":"Midtown","Station_Code":"N4","Web_address":"https://www.itsmarta.com/Midtown.aspx","Parking_Spaces":0,"Parking":"No","Street":"41 Tenth St NE","City":"Atlanta","Zip":30309,"GlobalID":"eba0f713-bfef-49c6-a4fc-a4f8b1c708e5","LABEL":"MARTA Midtown Station"}},{"type":"Feature","id":22,"geometry":{"type":"Point","coordinates":[-84.3444179566834,33.921072756961]},"properties":{"OBJECTID":22,"STATION":"Dunwoody","Station_Code":"N9","Web_address":"https://www.itsmarta.com/Dunwoody.aspx","Parking_Spaces":1091,"Parking":"Yes","Street":"1118 Hammond Dr","City":"Atlanta","Zip":30328,"GlobalID":"a4f0fdf0-890c-45f2-98ca-609b732237ee","LABEL":"MARTA Dunwoody Station"}},{"type":"Feature","id":23,"geometry":{"type":"Point","coordinates":[-84.3514598892201,33.9105594490089]},"properties":{"OBJECTID":23,"STATION":"Medical Center","Station_Code":"N8","Web_address":"https://www.itsmarta.com/Medical-Center.aspx","Parking_Spaces":260,"Parking":"Yes","Street":"5711 Peachtree-Dunwoody Rd NE","City":"Atlanta","Zip":30342,"GlobalID":"0ff7f482-d974-40ec-b7b2-93446f93cace","LABEL":"MARTA Medical Center Station"}},{"type":"Feature","id":24,"geometry":{"type":"Point","coordinates":[-84.3531536163913,33.9326122185127]},"properties":{"OBJECTID":24,"STATION":"Sandy Springs","Station_Code":"N10","Web_address":"https://www.itsmarta.com/Sandy-Springs.aspx","Parking_Spaces":1050,"Parking":"Yes","Street":"1101 Mount Vernon Hwy","City":"Atlanta","Zip":30338,"GlobalID":"ae7bccd9-bed6-48f9-893c-89ce7a9a0071","LABEL":"MARTA Sandy Springs Station"}},{"type":"Feature","id":25,"geometry":{"type":"Point","coordinates":[-84.3573192679178,33.9438236154296]},"properties":{"OBJECTID":25,"STATION":"North Springs","Station_Code":"N11","Web_address":"https://www.itsmarta.com/North-Springs.aspx","Parking_Spaces":2378,"Parking":"Yes","Street":"7010 Peachtree Dunwoody Rd","City":"Sandy Springs","Zip":30328,"GlobalID":"c7aaf1e2-555a-4d3b-8317-838f8de8bd4f","LABEL":"MARTA North Springs Station"}},{"type":"Feature","id":26,"geometry":{"type":"Point","coordinates":[-84.3676570950548,33.8477733322418]},"properties":{"OBJECTID":26,"STATION":"Buckhead","Station_Code":"N7","Web_address":"https://www.itsmarta.com/Buckhead.aspx","Parking_Spaces":0,"Parking":"No","Street":"3360 Peachtree Rd NE","City":"Atlanta","Zip":30326,"GlobalID":"e125e090-1304-4e0b-9c79-3cef1c4926c7","LABEL":"MARTA Buckhead Station"}},{"type":"Feature","id":27,"geometry":{"type":"Point","coordinates":[-84.3569149041148,33.8459613509134]},"properties":{"OBJECTID":27,"STATION":"Lenox","Station_Code":"NE7","Web_address":"https://www.itsmarta.com/Lenox.aspx","Parking_Spaces":555,"Parking":"Yes","Street":"955 East Paces Ferry Rd NE","City":"Atlanta","Zip":30326,"GlobalID":"4f17c25d-2a57-4f64-b1d0-6931d30f9624","LABEL":"MARTA Lenox Station"}},{"type":"Feature","id":28,"geometry":{"type":"Point","coordinates":[-84.3392681103382,33.8599765522386]},"properties":{"OBJECTID":28,"STATION":"Brookhaven","Station_Code":"NE8","Web_address":"https://www.itsmarta.com/Brookhaven.aspx","Parking_Spaces":1460,"Parking":"Yes","Street":"4047 Peachtree Road NE","City":"Atlanta","Zip":30319,"GlobalID":"2255b7ec-0fa0-4161-b59a-9ae8b0c080cf","LABEL":"MARTA Brookhaven Station"}},{"type":"Feature","id":29,"geometry":{"type":"Point","coordinates":[-84.2810100394379,33.9023921825942]},"properties":{"OBJECTID":29,"STATION":"Doraville","Station_Code":"NE10","Web_address":"https://www.itsmarta.com/Doraville.aspx","Parking_Spaces":1257,"Parking":"Yes","Street":"6000 New Peachtree Rd","City":"Doraville","Zip":30340,"GlobalID":"ac72733b-34ea-4d01-bd3b-ad29c6b98630","LABEL":"MARTA Doraville Station"}},{"type":"Feature","id":30,"geometry":{"type":"Point","coordinates":[-84.3867763590451,33.7715747378298]},"properties":{"OBJECTID":30,"STATION":"North Avenue","Station_Code":"N3","Web_address":"https://www.itsmarta.com/North-Ave.aspx","Parking_Spaces":0,"Parking":"No","Street":"713 West Peachtree St NW","City":"Atlanta","Zip":30308,"GlobalID":"5a0956a1-61dd-4a3a-b3d6-95b3415404ab","LABEL":"MARTA North Avenue Station"}},{"type":"Feature","id":31,"geometry":{"type":"Point","coordinates":[-84.3874858929425,33.7663867480648]},"properties":{"OBJECTID":31,"STATION":"Civic Center","Station_Code":"N2","Web_address":"https://www.itsmarta.com/Civic-Center.aspx","Parking_Spaces":0,"Parking":"No","Street":"435 West Peachtree St NW","City":"Atlanta","Zip":30308,"GlobalID":"55acecb0-a285-4715-8fe5-4798c7f62849","LABEL":"MARTA Civic Center Station"}},{"type":"Feature","id":32,"geometry":{"type":"Point","coordinates":[-84.3875698158285,33.7596843240333]},"properties":{"OBJECTID":32,"STATION":"Peachtree Center","Station_Code":"N1","Web_address":"https://www.itsmarta.com/Peachtree-Center.aspx","Parking_Spaces":0,"Parking":"No","Street":"216 Peachtree St NE","City":"Atlanta","Zip":30303,"GlobalID":"63fd827b-c14d-467d-aa64-0b9991c7afe0","LABEL":"MARTA Peachtree Center Station"}},{"type":"Feature","id":33,"geometry":{"type":"Point","coordinates":[-84.3917125777447,33.7538363911555]},"properties":{"OBJECTID":33,"STATION":"Five Points","Station_Code":"Five","Web_address":"https://www.itsmarta.com/Five-Points.aspx","Parking_Spaces":0,"Parking":"No","Street":"30 Alabama St SW","City":"Atlanta","Zip":30303,"GlobalID":"5ea30917-da06-4855-9f07-1b74f8382494","LABEL":"MARTA Five Points Station"}},{"type":"Feature","id":34,"geometry":{"type":"Point","coordinates":[-84.3983078025703,33.7563032231234]},"properties":{"OBJECTID":34,"STATION":"GWCC/CNN Center","Station_Code":"W1","Web_address":"https://www.itsmarta.com/Omni.aspx","Parking_Spaces":0,"Parking":"No","Street":"100 Centennial Olympic Park Dr NW","City":"Atlanta","Zip":30303,"GlobalID":"e3a14c71-ba11-4e5e-b145-cc83694e6367","LABEL":"MARTA GWCC/CNN Center Station"}},{"type":"Feature","id":35,"geometry":{"type":"Point","coordinates":[-84.3955883118927,33.7488009894267]},"properties":{"OBJECTID":35,"STATION":"Garnett","Station_Code":"S1","Web_address":"https://www.itsmarta.com/Garnett.aspx","Parking_Spaces":0,"Parking":"No","Street":"225 Peachtree St SW","City":"Atlanta","Zip":30303,"GlobalID":"3f29b8f1-13e0-4821-b3a9-785216f67b49","LABEL":"MARTA Garnett Station"}},{"type":"Feature","id":36,"geometry":{"type":"Point","coordinates":[-84.4461788352113,33.6406886296602]},"properties":{"OBJECTID":36,"STATION":"Airport","Station_Code":"S7","Web_address":"https://www.itsmarta.com/Airport.aspx","Parking_Spaces":0,"Parking":"No","Street":"6000 S Terminal Pkwy","City":"Atlanta","Zip":30337,"GlobalID":"05b9bf74-3af9-4402-a721-d8c3e248d348","LABEL":"MARTA Airport Station"}},{"type":"Feature","id":37,"geometry":{"type":"Point","coordinates":[-84.4488033483,33.6515338161788]},"properties":{"OBJECTID":37,"STATION":"College Park","Station_Code":"S6","Web_address":"https://www.itsmarta.com/College-Park.aspx","Parking_Spaces":2056,"Parking":"Yes","Street":"3800 Main St","City":"Atlanta","Zip":30337,"GlobalID":"ccdf7e9e-ea0d-4a62-afc1-db136fbda69e","LABEL":"MARTA College Park Station"}},{"type":"Feature","id":38,"geometry":{"type":"Point","coordinates":[-84.4408001125334,33.6768748554687]},"properties":{"OBJECTID":38,"STATION":"East Point","Station_Code":"S5","Web_address":"https://www.itsmarta.com/East-Point.aspx","Parking_Spaces":1002,"Parking":"Yes","Street":"2848 East Main St","City":"East Point","Zip":30344,"GlobalID":"1de8ba65-8b6a-4373-85fc-2c7dfa412ac0","LABEL":"MARTA East Point Station"}}]}