{
"type": "FeatureCollection",
"name": "TRAN_LightRailStops_MTA",
"crs": { "type": "name", "properties": { "name": "urn:ogc:def:crs:OGC:1.3:CRS84" } },
"features": [
{ "type": "Feature", "properties": { "OBJECTID_1": 102, "OBJECTID": 1, "Name": "Hunt Valley Light Rail Station", "ADDRESS": "98 Shawan Rd.", "CITY": "Hunt Valley", "STATE": "MD", "ZIP": 21031, "Transit_Mo": "Light Rail", "Facility_Type": "Station", "Avg_Wkdy": 428, "Avg_Wknd": 403 }, "geometry": { "type": "Point", "coordinates": [ -76.654290587999981, 39.496273245000054 ] } },
{ "type": "Feature", "properties": { "OBJECTID_1": 103, "OBJECTID": 2, "Name": "Pepper Road Light Rail Station", "ADDRESS": "1101 Schilling Road", "CITY": "Hunt Valley", "STATE": "MD", "ZIP": 21031, "Transit_Mo": "Light Rail", "Facility_Type": "Station", "Avg_Wkdy": 74, "Avg_Wknd": 33 }, "geometry": { "type": "Point", "coordinates": [ -76.656264780999948, 39.492089931000066 ] } },
{ "type": "Feature", "properties": { "OBJECTID_1": 104, "OBJECTID": 3, "Name": "McCormick Road Light Rail Station", "ADDRESS": "265 Schilling Circle", "CITY": "Hunt Valley", "STATE": "MD", "ZIP": 21031, "Transit_Mo": "Light Rail", "Facility_Type": "Station", "Avg_Wkdy": 152, "Avg_Wknd": 47 }, "geometry": { "type": "Point", "coordinates": [ -76.658939849999967, 39.489536079000061 ] } },
{ "type": "Feature", "properties": { "OBJECTID_1": 105, "OBJECTID": 4, "Name": "Gilroy Road Light Rail Station", "ADDRESS": "10903 Gilroy Road", "CITY": "Hunt Valley", "STATE": "MD", "ZIP": 21031, "Transit_Mo": "Light Rail", "Facility_Type": "Station", "Avg_Wkdy": 178, "Avg_Wknd": 63 }, "geometry": { "type": "Point", "coordinates": [ -76.661723772999949, 39.482151442000031 ] } },
{ "type": "Feature", "properties": { "OBJECTID_1": 106, "OBJECTID": 5, "Name": "Warren Road Light Rail Station", "ADDRESS": "300 West Warren Rd.", "CITY": "Hunt Valley", "STATE": "MD", "ZIP": 21031, "Transit_Mo": "Light Rail", "Facility_Type": "Station", "Avg_Wkdy": 119, "Avg_Wknd": 57 }, "geometry": { "type": "Point", "coordinates": [ -76.653736983999977, 39.475892874000067 ] } },
{ "type": "Feature", "properties": { "OBJECTID_1": 107, "OBJECTID": 6, "Name": "Fairgrounds Light Rail Station", "ADDRESS": "2335 Greenspring Drive", "CITY": "Timonium", "STATE": "MD", "ZIP": 21093, "Transit_Mo": "Light Rail", "Facility_Type": "Station", "Avg_Wkdy": 273, "Avg_Wknd": 161 }, "geometry": { "type": "Point", "coordinates": [ -76.634939937999945, 39.448548776000052 ] } },
{ "type": "Feature", "properties": { "OBJECTID_1": 108, "OBJECTID": 7, "Name": "Timonium Light Rail Station", "ADDRESS": "60 Business Park Drive", "CITY": "Timonium", "STATE": "MD", "ZIP": 21093, "Transit_Mo": "Light Rail", "Facility_Type": "Station", "Avg_Wkdy": 142, "Avg_Wknd": 83 }, "geometry": { "type": "Point", "coordinates": [ -76.628184069999975, 39.433860902000049 ] } },
{ "type": "Feature", "properties": { "OBJECTID_1": 109, "OBJECTID": 8, "Name": "Lutherville Light Rail Station", "ADDRESS": "150 Ridgley Road West", "CITY": "Timonium", "STATE": "MD", "ZIP": 21093, "Transit_Mo": "Light Rail", "Facility_Type": "Station", "Avg_Wkdy": 326, "Avg_Wknd": 220 }, "geometry": { "type": "Point", "coordinates": [ -76.627138783999953, 39.428956949000053 ] } },
{ "type": "Feature", "properties": { "OBJECTID_1": 110, "OBJECTID": 9, "Name": "Falls Road Light Rail Station", "ADDRESS": "6101 Falls Road", "CITY": "Baltimore", "STATE": "MD", "ZIP": 21209, "Transit_Mo": "Light Rail", "Facility_Type": "Station", "Avg_Wkdy": 123, "Avg_Wknd": 117 }, "geometry": { "type": "Point", "coordinates": [ -76.649726869999938, 39.376626111000064 ] } },
{ "type": "Feature", "properties": { "OBJECTID_1": 111, "OBJECTID": 10, "Name": "Mount Washington Light Rail Station", "ADDRESS": "5701 Smith Avenue", "CITY": "Baltimore", "STATE": "MD", "ZIP": 21209, "Transit_Mo": "Light Rail", "Facility_Type": "Station", "Avg_Wkdy": 236, "Avg_Wknd": 170 }, "geometry": { "type": "Point", "coordinates": [ -76.652173445999949, 39.368458352000061 ] } },
{ "type": "Feature", "properties": { "OBJECTID_1": 112, "OBJECTID": 11, "Name": "Cold Spring Light Rail Station", "ADDRESS": "1900 W. Coldspring Lane", "CITY": "Baltimore", "STATE": "MD", "ZIP": 21209, "Transit_Mo": "Light Rail", "Facility_Type": "Station", "Avg_Wkdy": 291, "Avg_Wknd": 104 }, "geometry": { "type": "Point", "coordinates": [ -76.647926947999963, 39.344092874000069 ] } },
{ "type": "Feature", "properties": { "OBJECTID_1": 113, "OBJECTID": 12, "Name": "Woodberry Light Rail Station", "ADDRESS": "1801 Union Avenue", "CITY": "Baltimore", "STATE": "MD", "ZIP": 21211, "Transit_Mo": "Light Rail", "Facility_Type": "Station", "Avg_Wkdy": 252, "Avg_Wknd": 162 }, "geometry": { "type": "Point", "coordinates": [ -76.643399530999943, 39.331187123000063 ] } },
{ "type": "Feature", "properties": { "OBJECTID_1": 114, "OBJECTID": 13, "Name": "North Avenue Light Rail Station", "ADDRESS": "320 W. North Avenue", "CITY": "Baltimore", "STATE": "MD", "ZIP": 21217, "Transit_Mo": "Light Rail", "Facility_Type": "Station", "Avg_Wkdy": 1122, "Avg_Wknd": 786 }, "geometry": { "type": "Point", "coordinates": [ -76.622620574999985, 39.311861630000067 ] } },
{ "type": "Feature", "properties": { "OBJECTID_1": 115, "OBJECTID": 14, "Name": "Penn Station Light Rail Station", "ADDRESS": "1500 N. Charles Street", "CITY": "Baltimore", "STATE": "MD", "ZIP": 21201, "Transit_Mo": "Light Rail", "Facility_Type": "Station", "Avg_Wkdy": 0, "Avg_Wknd": 0 }, "geometry": { "type": "Point", "coordinates": [ -76.615750095999942, 39.307818912000073 ] } },
{ "type": "Feature", "properties": { "OBJECTID_1": 116, "OBJECTID": 15, "Name": "Mt. Royal/MICA Light Rail Station", "ADDRESS": "1201 W. Mt. Royal Avenue", "CITY": "Baltimore", "STATE": "MD", "ZIP": 21217, "Transit_Mo": "Light Rail", "Facility_Type": "Station", "Avg_Wkdy": 178, "Avg_Wknd": 135 }, "geometry": { "type": "Point", "coordinates": [ -76.619880449999982, 39.307373347000066 ] } },
{ "type": "Feature", "properties": { "OBJECTID_1": 117, "OBJECTID": 16, "Name": "Cultural Center Light Rail Station", "ADDRESS": "935 N. Howard Street", "CITY": "Baltimore", "STATE": "MD", "ZIP": 21217, "Transit_Mo": "Light Rail", "Facility_Type": "Station", "Avg_Wkdy": 450, "Avg_Wknd": 252 }, "geometry": { "type": "Point", "coordinates": [ -76.620451186999958, 39.303678769000044 ] } },
{ "type": "Feature", "properties": { "OBJECTID_1": 118, "OBJECTID": 17, "Name": "Mt. Vernon Light Rail Station", "ADDRESS": "540 N. Howard Street", "CITY": "Baltimore", "STATE": "MD", "ZIP": 21201, "Transit_Mo": "Light Rail", "Facility_Type": "Station", "Avg_Wkdy": 342, "Avg_Wknd": 205 }, "geometry": { "type": "Point", "coordinates": [ -76.619956054999989, 39.296642408000025 ] } },
{ "type": "Feature", "properties": { "OBJECTID_1": 119, "OBJECTID": 19, "Name": "Convention Center Light Rail Station", "ADDRESS": "200 S. Howard Street", "CITY": "Baltimore", "STATE": "MD", "ZIP": 21201, "Transit_Mo": "Light Rail", "Facility_Type": "Station", "Avg_Wkdy": 761, "Avg_Wknd": 574 }, "geometry": { "type": "Point", "coordinates": [ -76.619338877999951, 39.285940007000079 ] } },
{ "type": "Feature", "properties": { "OBJECTID_1": 120, "OBJECTID": 20, "Name": "Camden Station Light Rail Station", "ADDRESS": "400 S. Howard Street", "CITY": "Baltimore", "STATE": "MD", "ZIP": 21201, "Transit_Mo": "Light Rail", "Facility_Type": "Station", "Avg_Wkdy": 460, "Avg_Wknd": 462 }, "geometry": { "type": "Point", "coordinates": [ -76.619389786999989, 39.283247162000066 ] } },
{ "type": "Feature", "properties": { "OBJECTID_1": 121, "OBJECTID": 21, "Name": "Stadium/Federal Hill Light Rail Station", "ADDRESS": "1120 S. Howard Street", "CITY": "Baltimore", "STATE": "MD", "ZIP": 21201, "Transit_Mo": "Light Rail", "Facility_Type": "Station", "Avg_Wkdy": 248, "Avg_Wknd": 391 }, "geometry": { "type": "Point", "coordinates": [ -76.620478014999946, 39.277836101000048 ] } },
{ "type": "Feature", "properties": { "OBJECTID_1": 122, "OBJECTID": 22, "Name": "Westport Light Rail Station", "ADDRESS": "2200 Kloman Street", "CITY": "Baltimore", "STATE": "MD", "ZIP": 21230, "Transit_Mo": "Light Rail", "Facility_Type": "Station", "Avg_Wkdy": 443, "Avg_Wknd": 318 }, "geometry": { "type": "Point", "coordinates": [ -76.632128117999969, 39.261819896000077 ] } },
{ "type": "Feature", "properties": { "OBJECTID_1": 123, "OBJECTID": 23, "Name": "Patapsco Light Rail Station", "ADDRESS": "751 W. Patapsco Avenue", "CITY": "Baltimore", "STATE": "MD", "ZIP": 21230, "Transit_Mo": "Light Rail", "Facility_Type": "Station", "Avg_Wkdy": 737, "Avg_Wknd": 472 }, "geometry": { "type": "Point", "coordinates": [ -76.629994193999948, 39.24199073300008 ] } },
{ "type": "Feature", "properties": { "OBJECTID_1": 124, "OBJECTID": 24, "Name": "Baltimore Highlands Light Rail Station", "ADDRESS": "4125 Baltimore St.", "CITY": "Baltimore", "STATE": "MD", "ZIP": 21227, "Transit_Mo": "Light Rail", "Facility_Type": "Station", "Avg_Wkdy": 103, "Avg_Wknd": 95 }, "geometry": { "type": "Point", "coordinates": [ -76.632919500999947, 39.235112926000056 ] } },
{ "type": "Feature", "properties": { "OBJECTID_1": 125, "OBJECTID": 25, "Name": "Nursery Road Light Rail Station", "ADDRESS": "6825 Baltimore Annapolis Boulevard", "CITY": "Linthicum", "STATE": "MD", "ZIP": 21090, "Transit_Mo": "Light Rail", "Facility_Type": "Station", "Avg_Wkdy": 162, "Avg_Wknd": 118 }, "geometry": { "type": "Point", "coordinates": [ -76.641394669999954, 39.221556268000029 ] } },
{ "type": "Feature", "properties": { "OBJECTID_1": 126, "OBJECTID": 26, "Name": "North Linthicum Light Rail Station", "ADDRESS": "450 N. Camp Meade Road", "CITY": "Linthicum", "STATE": "MD", "ZIP": 21090, "Transit_Mo": "Light Rail", "Facility_Type": "Station", "Avg_Wkdy": 330, "Avg_Wknd": 322 }, "geometry": { "type": "Point", "coordinates": [ -76.646078597999974, 39.214338890000079 ] } },
{ "type": "Feature", "properties": { "OBJECTID_1": 127, "OBJECTID": 27, "Name": "Linthicum Light Rail Station", "ADDRESS": "595 N. Camp Meade Road", "CITY": "Linthicum", "STATE": "MD", "ZIP": 21090, "Transit_Mo": "Light Rail", "Facility_Type": "Station", "Avg_Wkdy": 265, "Avg_Wknd": 218 }, "geometry": { "type": "Point", "coordinates": [ -76.65534060799996, 39.202318641000033 ] } },
{ "type": "Feature", "properties": { "OBJECTID_1": 128, "OBJECTID": 28, "Name": "BWI Business Park Light Rail Station", "ADDRESS": "678 Elkridge Landing Road", "CITY": "Linthicum", "STATE": "MD", "ZIP": 21090, "Transit_Mo": "Light Rail", "Facility_Type": "Station", "Avg_Wkdy": 108, "Avg_Wknd": 71 }, "geometry": { "type": "Point", "coordinates": [ -76.673215444999983, 39.191499766000049 ] } },
{ "type": "Feature", "properties": { "OBJECTID_1": 129, "OBJECTID": 29, "Name": "BWI Airport Light Rail Station", "ADDRESS": "International Pier @ BWI Airport", "CITY": "Hanover", "STATE": "MD", "ZIP": 21240, "Transit_Mo": "Light Rail", "Facility_Type": "Station", "Avg_Wkdy": 954, "Avg_Wknd": 609 }, "geometry": { "type": "Point", "coordinates": [ -76.668887407999989, 39.182023035000043 ] } },
{ "type": "Feature", "properties": { "OBJECTID_1": 130, "OBJECTID": 30, "Name": "Ferndale Light Rail Station", "ADDRESS": "10 Broadview Boulevard", "CITY": "Glen Burnie", "STATE": "MD", "ZIP": 21061, "Transit_Mo": "Light Rail", "Facility_Type": "Station", "Avg_Wkdy": 90, "Avg_Wknd": 58 }, "geometry": { "type": "Point", "coordinates": [ -76.640164667999954, 39.18365590600007 ] } },
{ "type": "Feature", "properties": { "OBJECTID_1": 131, "OBJECTID": 31, "Name": "Baltimore Arena Light Rail Station", "ADDRESS": "11 S. Howard St.", "CITY": "Baltimore", "STATE": "MD", "ZIP": 21201, "Transit_Mo": "Light Rail", "Facility_Type": "Station", "Avg_Wkdy": 891, "Avg_Wknd": 464 }, "geometry": { "type": "Point", "coordinates": [ -76.619434966999961, 39.288766859000077 ] } },
{ "type": "Feature", "properties": { "OBJECTID_1": 132, "OBJECTID": 32, "Name": "Lexington Market Light Rail Station", "ADDRESS": "299 N. Howard St.", "CITY": "Baltimore", "STATE": "MD", "ZIP": 21201, "Transit_Mo": "Light Rail", "Facility_Type": "Station", "Avg_Wkdy": 970, "Avg_Wknd": 546 }, "geometry": { "type": "Point", "coordinates": [ -76.619625092999968, 39.292038209000054 ] } },
{ "type": "Feature", "properties": { "OBJECTID_1": 133, "OBJECTID": 34, "Name": "Cherry Hill Light Rail Station", "ADDRESS": "1701 Cherry Hill Rd", "CITY": "Baltimore", "STATE": "MD", "ZIP": 21230, "Transit_Mo": "Light Rail", "Facility_Type": "Station", "Avg_Wkdy": 300, "Avg_Wknd": 161 }, "geometry": { "type": "Point", "coordinates": [ -76.634930609999969, 39.256003718000045 ] } },
{ "type": "Feature", "properties": { "OBJECTID_1": 134, "OBJECTID": 35, "Name": "Glen Burnie Light Rail Station", "ADDRESS": "102 Dorsey Rd.", "CITY": "Glen Burnie", "STATE": "MD", "ZIP": 21060, "Transit_Mo": "Light Rail", "Facility_Type": "Station", "Avg_Wkdy": 660, "Avg_Wknd": 493 }, "geometry": { "type": "Point", "coordinates": [ -76.633169175999967, 39.172193028000038 ] } }
]
}
