{
"type": "FeatureCollection",
"name": "TRAN_BaltimoreMetroSubwayStops_MTA",
"crs": { "type": "name", "properties": { "name": "urn:ogc:def:crs:OGC:1.3:CRS84" } },
"features": [
{ "type": "Feature", "properties": { "OBJECTID_1": 48, "OBJECTID": 1, "Name": "Old Court Metro Station", "ADDRESS": "4300 Old Court Road", "CITY": "Pikesville", "STATE": "MD", "ZIP": 21208, "Transit_Mo": "Metro", "Facility_Type": "Station", "Avg_Wkdy": 619, "Avg_Wknd": 386 }, "geometry": { "type": "Point", "coordinates": [ -76.744089879999933, 39.371268604000079 ] } },
{ "type": "Feature", "properties": { "OBJECTID_1": 49, "OBJECTID": 2, "Name": "Owings Mills Metro Station", "ADDRESS": "5018 Painters Mill Road", "CITY": "Owings Mills", "STATE": "MD", "ZIP": 21117, "Transit_Mo": "Metro", "Facility_Type": "Station", "Avg_Wkdy": 910, "Avg_Wknd": 618 }, "geometry": { "type": "Point", "coordinates": [ -76.779939223999975, 39.407399511000051 ] } },
{ "type": "Feature", "properties": { "OBJECTID_1": 50, "OBJECTID": 3, "Name": "Milford Mill Metro Station", "ADDRESS": "4401 Milford Mill Road", "CITY": "Pikesville", "STATE": "MD", "ZIP": 21208, "Transit_Mo": "Metro", "Facility_Type": "Station", "Avg_Wkdy": 871, "Avg_Wknd": 654 }, "geometry": { "type": "Point", "coordinates": [ -76.720590714999958, 39.359628911000073 ] } },
{ "type": "Feature", "properties": { "OBJECTID_1": 51, "OBJECTID": 4, "Name": "Reisterstown Plaza Metro Station", "ADDRESS": "6301 Wabash Avenue", "CITY": "Baltimore", "STATE": "MD", "ZIP": 21215, "Transit_Mo": "Metro", "Facility_Type": "Station", "Avg_Wkdy": 781, "Avg_Wknd": 737 }, "geometry": { "type": "Point", "coordinates": [ -76.704686286999959, 39.351932370000043 ] } },
{ "type": "Feature", "properties": { "OBJECTID_1": 52, "OBJECTID": 5, "Name": "Rogers Avenue Metro Station", "ADDRESS": "4300 Hayward Avenue", "CITY": "Baltimore", "STATE": "MD", "ZIP": 21215, "Transit_Mo": "Metro", "Facility_Type": "Station", "Avg_Wkdy": 1022, "Avg_Wknd": 717 }, "geometry": { "type": "Point", "coordinates": [ -76.691872624999974, 39.344836864000058 ] } },
{ "type": "Feature", "properties": { "OBJECTID_1": 53, "OBJECTID": 6, "Name": "West Coldspring Metro Station", "ADDRESS": "4301 Wabash Avenue", "CITY": "Baltimore", "STATE": "MD", "ZIP": 21215, "Transit_Mo": "Metro", "Facility_Type": "Station", "Avg_Wkdy": 743, "Avg_Wknd": 520 }, "geometry": { "type": "Point", "coordinates": [ -76.672421723999946, 39.336297062000028 ] } },
{ "type": "Feature", "properties": { "OBJECTID_1": 54, "OBJECTID": 7, "Name": "Johns Hopkins Metro Station", "ADDRESS": "706 N. Broadway", "CITY": "Baltimore", "STATE": "MD", "ZIP": 21205, "Transit_Mo": "Metro", "Facility_Type": "Station", "Avg_Wkdy": 1940, "Avg_Wknd": 1016 }, "geometry": { "type": "Point", "coordinates": [ -76.594613876999972, 39.298607387000061 ] } },
{ "type": "Feature", "properties": { "OBJECTID_1": 55, "OBJECTID": 10, "Name": "Charles Center Metro Station", "ADDRESS": "31 W. Baltimore St.", "CITY": "Baltimore", "STATE": "MD", "ZIP": 21201, "Transit_Mo": "Metro", "Facility_Type": "Station", "Avg_Wkdy": 1771, "Avg_Wknd": 1007 }, "geometry": { "type": "Point", "coordinates": [ -76.616068194999968, 39.28936703800008 ] } },
{ "type": "Feature", "properties": { "OBJECTID_1": 56, "OBJECTID": 12, "Name": "Lexington Market Metro Station", "ADDRESS": "301 W. Lexington St.", "CITY": "Baltimore", "STATE": "MD", "ZIP": 21201, "Transit_Mo": "Metro", "Facility_Type": "Station", "Avg_Wkdy": 2157, "Avg_Wknd": 1779 }, "geometry": { "type": "Point", "coordinates": [ -76.620818916999951, 39.291708631000063 ] } },
{ "type": "Feature", "properties": { "OBJECTID_1": 57, "OBJECTID": 13, "Name": "State Center Metro Station", "ADDRESS": "302 W. Preston Street", "CITY": "Baltimore", "STATE": "MD", "ZIP": 21201, "Transit_Mo": "Metro", "Facility_Type": "Station", "Avg_Wkdy": 818, "Avg_Wknd": 683 }, "geometry": { "type": "Point", "coordinates": [ -76.622854918999963, 39.301805620000039 ] } },
{ "type": "Feature", "properties": { "OBJECTID_1": 58, "OBJECTID": 14, "Name": "Upton Metro Station", "ADDRESS": "1702 Pennsylvania Avenue", "CITY": "Baltimore", "STATE": "MD", "ZIP": 21217, "Transit_Mo": "Metro", "Facility_Type": "Station", "Avg_Wkdy": 692, "Avg_Wknd": 807 }, "geometry": { "type": "Point", "coordinates": [ -76.635762215999989, 39.304004203000034 ] } },
{ "type": "Feature", "properties": { "OBJECTID_1": 59, "OBJECTID": 16, "Name": "Mondawmin Metro Station", "ADDRESS": "2307 Liberty Heights Avenue", "CITY": "Baltimore", "STATE": "MD", "ZIP": 21215, "Transit_Mo": "Metro", "Facility_Type": "Station", "Avg_Wkdy": 1266, "Avg_Wknd": 1048 }, "geometry": { "type": "Point", "coordinates": [ -76.652777893999939, 39.317906805000064 ] } },
{ "type": "Feature", "properties": { "OBJECTID_1": 60, "OBJECTID": 17, "Name": "Penn-North Metro Station", "ADDRESS": "1601 W. North Avenue", "CITY": "Baltimore", "STATE": "MD", "ZIP": 21217, "Transit_Mo": "Metro", "Facility_Type": "Station", "Avg_Wkdy": 989, "Avg_Wknd": 1019 }, "geometry": { "type": "Point", "coordinates": [ -76.642279359999975, 39.310299087000033 ] } },
{ "type": "Feature", "properties": { "OBJECTID_1": 61, "OBJECTID": 19, "Name": "Shot Tower Metro Station", "ADDRESS": "729 E. Baltimore Street", "CITY": "Baltimore", "STATE": "MD", "ZIP": 21202, "Transit_Mo": "Metro", "Facility_Type": "Station", "Avg_Wkdy": 675, "Avg_Wknd": 567 }, "geometry": { "type": "Point", "coordinates": [ -76.606135262999942, 39.289610331000063 ] } }
]
}
