{
"type": "FeatureCollection",
"name": "Trolley_Stations",
"crs": { "type": "name", "properties": { "name": "urn:ogc:def:crs:OGC:1.3:CRS84" } },
"features": [
{ "type": "Feature", "properties": { "FID": 1, "StopName": "Orange Street", "LineAbbr": "101", "Lon": -75.393998, "Lat": 39.918478 }, "geometry": { "type": "Point", "coordinates": [ -75.393998, 39.918478 ] } },
{ "type": "Feature", "properties": { "FID": 2, "StopName": "Veterans Square", "LineAbbr": "101", "Lon": -75.392145, "Lat": 39.918209 }, "geometry": { "type": "Point", "coordinates": [ -75.392145, 39.918209 ] } },
{ "type": "Feature", "properties": { "FID": 3, "StopName": "Olive Street", "LineAbbr": "101", "Lon": -75.391165, "Lat": 39.918066 }, "geometry": { "type": "Point", "coordinates": [ -75.391165, 39.918066 ] } },
{ "type": "Feature", "properties": { "FID": 4, "StopName": "Jackson Street", "LineAbbr": "101", "Lon": -75.389584, "Lat": 39.917843 }, "geometry": { "type": "Point", "coordinates": [ -75.389584, 39.917843 ] } },
{ "type": "Feature", "properties": { "FID": 5, "StopName": "Monroe Street", "LineAbbr": "101", "Lon": -75.387766, "Lat": 39.917592 }, "geometry": { "type": "Point", "coordinates": [ -75.387766, 39.917592 ] } },
{ "type": "Feature", "properties": { "FID": 6, "StopName": "Edgmont Street", "LineAbbr": "101", "Lon": -75.385772, "Lat": 39.917333 }, "geometry": { "type": "Point", "coordinates": [ -75.385772, 39.917333 ] } },
{ "type": "Feature", "properties": { "FID": 7, "StopName": "Manchester Avenue", "LineAbbr": "101", "Lon": -75.382998, "Lat": 39.91693 }, "geometry": { "type": "Point", "coordinates": [ -75.382998, 39.91693 ] } },
{ "type": "Feature", "properties": { "FID": 8, "StopName": "Providence Road", "LineAbbr": "101", "Lon": -75.380614, "Lat": 39.916626 }, "geometry": { "type": "Point", "coordinates": [ -75.380614, 39.916626 ] } },
{ "type": "Feature", "properties": { "FID": 9, "StopName": "Beatty Road", "LineAbbr": "101", "Lon": -75.376861, "Lat": 39.916071 }, "geometry": { "type": "Point", "coordinates": [ -75.376861, 39.916071 ] } },
{ "type": "Feature", "properties": { "FID": 10, "StopName": "Pine Ridge", "LineAbbr": "101", "Lon": -75.369922, "Lat": 39.914872 }, "geometry": { "type": "Point", "coordinates": [ -75.369922, 39.914872 ] } },
{ "type": "Feature", "properties": { "FID": 12, "StopName": "Paper Mill Road", "LineAbbr": "101", "Lon": -75.357953, "Lat": 39.915276 }, "geometry": { "type": "Point", "coordinates": [ -75.357953, 39.915276 ] } },
{ "type": "Feature", "properties": { "FID": 13, "StopName": "Springfield Mall", "LineAbbr": "101", "Lon": -75.348992, "Lat": 39.918011 }, "geometry": { "type": "Point", "coordinates": [ -75.348992, 39.918011 ] } },
{ "type": "Feature", "properties": { "FID": 14, "StopName": "Thomson Avenue", "LineAbbr": "101", "Lon": -75.345341, "Lat": 39.921123 }, "geometry": { "type": "Point", "coordinates": [ -75.345341, 39.921123 ] } },
{ "type": "Feature", "properties": { "FID": 15, "StopName": "Woodland Avenue", "LineAbbr": "101", "Lon": -75.339624, "Lat": 39.924644 }, "geometry": { "type": "Point", "coordinates": [ -75.339624, 39.924644 ] } },
{ "type": "Feature", "properties": { "FID": 16, "StopName": "Leamy Avenue", "LineAbbr": "101", "Lon": -75.337154, "Lat": 39.926267 }, "geometry": { "type": "Point", "coordinates": [ -75.337154, 39.926267 ] } },
{ "type": "Feature", "properties": { "FID": 17, "StopName": "Saxer Avenue", "LineAbbr": "101", "Lon": -75.333515, "Lat": 39.928665 }, "geometry": { "type": "Point", "coordinates": [ -75.333515, 39.928665 ] } },
{ "type": "Feature", "properties": { "FID": 18, "StopName": "Springfield Road", "LineAbbr": "101", "Lon": -75.329458, "Lat": 39.934409 }, "geometry": { "type": "Point", "coordinates": [ -75.329458, 39.934409 ] } },
{ "type": "Feature", "properties": { "FID": 19, "StopName": "Scenic Road", "LineAbbr": "101", "Lon": -75.325872, "Lat": 39.940734 }, "geometry": { "type": "Point", "coordinates": [ -75.325872, 39.940734 ] } },
{ "type": "Feature", "properties": { "FID": 20, "StopName": "Drexeline", "LineAbbr": "101", "Lon": -75.321592, "Lat": 39.944559 }, "geometry": { "type": "Point", "coordinates": [ -75.321592, 39.944559 ] } },
{ "type": "Feature", "properties": { "FID": 21, "StopName": "Drexelbrook", "LineAbbr": "101", "Lon": -75.315955, "Lat": 39.947106 }, "geometry": { "type": "Point", "coordinates": [ -75.315955, 39.947106 ] } },
{ "type": "Feature", "properties": { "FID": 22, "StopName": "Anderson Avenue", "LineAbbr": "101", "Lon": -75.312636, "Lat": 39.947826 }, "geometry": { "type": "Point", "coordinates": [ -75.312636, 39.947826 ] } },
{ "type": "Feature", "properties": { "FID": 23, "StopName": "Aronimink", "LineAbbr": "101", "Lon": -75.306033, "Lat": 39.949203 }, "geometry": { "type": "Point", "coordinates": [ -75.306033, 39.949203 ] } },
{ "type": "Feature", "properties": { "FID": 24, "StopName": "School Lane", "LineAbbr": "101", "Lon": -75.29987, "Lat": 39.94859 }, "geometry": { "type": "Point", "coordinates": [ -75.29987, 39.94859 ] } },
{ "type": "Feature", "properties": { "FID": 25, "StopName": "Huey Avenue", "LineAbbr": "101", "Lon": -75.297688, "Lat": 39.94741 }, "geometry": { "type": "Point", "coordinates": [ -75.297688, 39.94741 ] } },
{ "type": "Feature", "properties": { "FID": 26, "StopName": "Drexel Hill Junction", "LineAbbr": "101, 102", "Lon": -75.292575, "Lat": 39.947012 }, "geometry": { "type": "Point", "coordinates": [ -75.292575, 39.947012 ] } },
{ "type": "Feature", "properties": { "FID": 27, "StopName": "Irvington Road", "LineAbbr": "101, 102", "Lon": -75.289148, "Lat": 39.948668 }, "geometry": { "type": "Point", "coordinates": [ -75.289148, 39.948668 ] } },
{ "type": "Feature", "properties": { "FID": 28, "StopName": "Drexel Park", "LineAbbr": "101, 102", "Lon": -75.286949, "Lat": 39.949709 }, "geometry": { "type": "Point", "coordinates": [ -75.286949, 39.949709 ] } },
{ "type": "Feature", "properties": { "FID": 29, "StopName": "Lansdowne Avenue", "LineAbbr": "101, 102", "Lon": -75.282328, "Lat": 39.951614 }, "geometry": { "type": "Point", "coordinates": [ -75.282328, 39.951614 ] } },
{ "type": "Feature", "properties": { "FID": 30, "StopName": "Congress Avenue", "LineAbbr": "101, 102", "Lon": -75.279078, "Lat": 39.952976 }, "geometry": { "type": "Point", "coordinates": [ -75.279078, 39.952976 ] } },
{ "type": "Feature", "properties": { "FID": 31, "StopName": "Beverly Boulevard", "LineAbbr": "101, 102", "Lon": -75.274066, "Lat": 39.955326 }, "geometry": { "type": "Point", "coordinates": [ -75.274066, 39.955326 ] } },
{ "type": "Feature", "properties": { "FID": 32, "StopName": "Hilltop Road", "LineAbbr": "101, 102", "Lon": -75.272718, "Lat": 39.955967 }, "geometry": { "type": "Point", "coordinates": [ -75.272718, 39.955967 ] } },
{ "type": "Feature", "properties": { "FID": 33, "StopName": "Avon Road", "LineAbbr": "101, 102", "Lon": -75.268888, "Lat": 39.95772 }, "geometry": { "type": "Point", "coordinates": [ -75.268888, 39.95772 ] } },
{ "type": "Feature", "properties": { "FID": 34, "StopName": "Walnut Street", "LineAbbr": "101, 102", "Lon": -75.266263, "Lat": 39.958921 }, "geometry": { "type": "Point", "coordinates": [ -75.266263, 39.958921 ] } },
{ "type": "Feature", "properties": { "FID": 35, "StopName": "Fairfield Avenue", "LineAbbr": "101, 102", "Lon": -75.263613, "Lat": 39.960864 }, "geometry": { "type": "Point", "coordinates": [ -75.263613, 39.960864 ] } },
{ "type": "Feature", "properties": { "FID": 36, "StopName": "69th Street Transportation Center", "LineAbbr": "101, 102", "Lon": -75.259689, "Lat": 39.962161 }, "geometry": { "type": "Point", "coordinates": [ -75.259689, 39.962161 ] } },
{ "type": "Feature", "properties": { "FID": 37, "StopName": "15th Street", "LineAbbr": "10, 11, 13, 34, 36", "Lon": -75.165345, "Lat": 39.952672 }, "geometry": { "type": "Point", "coordinates": [ -75.165345, 39.952672 ] } },
{ "type": "Feature", "properties": { "FID": 38, "StopName": "30th Street", "LineAbbr": "10, 11, 13, 34, 36", "Lon": -75.183169, "Lat": 39.954894 }, "geometry": { "type": "Point", "coordinates": [ -75.183169, 39.954894 ] } },
{ "type": "Feature", "properties": { "FID": 39, "StopName": "37th Street", "LineAbbr": "11, 13, 34, 36", "Lon": -75.197306, "Lat": 39.951048 }, "geometry": { "type": "Point", "coordinates": [ -75.197306, 39.951048 ] } },
{ "type": "Feature", "properties": { "FID": 40, "StopName": "40th Street Portal", "LineAbbr": "11, 13, 34, 36", "Lon": -75.203333, "Lat": 39.949595 }, "geometry": { "type": "Point", "coordinates": [ -75.203333, 39.949595 ] } },
{ "type": "Feature", "properties": { "FID": 41, "StopName": "22nd Street", "LineAbbr": "10, 11, 13, 34, 36", "Lon": -75.176571, "Lat": 39.954051 }, "geometry": { "type": "Point", "coordinates": [ -75.176571, 39.954051 ] } },
{ "type": "Feature", "properties": { "FID": 42, "StopName": "36th Street", "LineAbbr": " 11, 13, 34, 36", "Lon": -75.194505, "Lat": 39.953848 }, "geometry": { "type": "Point", "coordinates": [ -75.194504680999898, 39.953847876 ] } },
{ "type": "Feature", "properties": { "FID": 43, "StopName": "36th Street Portal", "LineAbbr": " 10", "Lon": -75.194066, "Lat": 39.955591 }, "geometry": { "type": "Point", "coordinates": [ -75.194066488999894, 39.955591227000099 ] } },
{ "type": "Feature", "properties": { "FID": 44, "StopName": "33rd Street", "LineAbbr": " 10, 11, 13, 34, 36", "Lon": -75.189707, "Lat": 39.954787 }, "geometry": { "type": "Point", "coordinates": [ -75.189706613999903, 39.9547868800001 ] } },
{ "type": "Feature", "properties": { "FID": 45, "StopName": "19th Street", "LineAbbr": " 10, 11, 13, 34, 36", "Lon": -75.171647, "Lat": 39.953423 }, "geometry": { "type": "Point", "coordinates": [ -75.171647229999905, 39.953423198000102 ] } },
{ "type": "Feature", "properties": { "FID": 46, "StopName": "13th Street", "LineAbbr": " 10, 11, 13, 34, 36", "Lon": -75.162559, "Lat": 39.952532 }, "geometry": { "type": "Point", "coordinates": [ -75.162559, 39.952532 ] } },
{ "type": "Feature", "properties": { "FID": 47, "StopName": "Garrettford", "LineAbbr": "102", "Lon": -75.295901, "Lat": 39.944034 }, "geometry": { "type": "Point", "coordinates": [ -75.295900685705803, 39.944033584937998 ] } },
{ "type": "Feature", "properties": { "FID": 48, "StopName": "Drexel Manor", "LineAbbr": "102", "Lon": -75.296557, "Lat": 39.942185 }, "geometry": { "type": "Point", "coordinates": [ -75.296557063952207, 39.942184652603899 ] } },
{ "type": "Feature", "properties": { "FID": 49, "StopName": "Marshall Road", "LineAbbr": "102", "Lon": -75.296482, "Lat": 39.940155 }, "geometry": { "type": "Point", "coordinates": [ -75.296481772350305, 39.9401551499056 ] } },
{ "type": "Feature", "properties": { "FID": 50, "StopName": "Creek Road", "LineAbbr": "102", "Lon": -75.295193, "Lat": 39.935101 }, "geometry": { "type": "Point", "coordinates": [ -75.295193197374104, 39.935101185497999 ] } },
{ "type": "Feature", "properties": { "FID": 51, "StopName": "Baltimore Pike", "LineAbbr": "102", "Lon": -75.292881, "Lat": 39.931268 }, "geometry": { "type": "Point", "coordinates": [ -75.292880871621193, 39.931267503745197 ] } },
{ "type": "Feature", "properties": { "FID": 52, "StopName": "Penn Street", "LineAbbr": " 102", "Lon": -75.291952, "Lat": 39.92891 }, "geometry": { "type": "Point", "coordinates": [ -75.2919521182734, 39.928909608477603 ] } },
{ "type": "Feature", "properties": { "FID": 53, "StopName": "Springfield Road", "LineAbbr": "102", "Lon": -75.292622, "Lat": 39.927304 }, "geometry": { "type": "Point", "coordinates": [ -75.292622198858396, 39.927303995589597 ] } },
{ "type": "Feature", "properties": { "FID": 54, "StopName": "Clifton-Aldan", "LineAbbr": "102", "Lon": -75.290088, "Lat": 39.925724 }, "geometry": { "type": "Point", "coordinates": [ -75.290087595373507, 39.925724444973 ] } },
{ "type": "Feature", "properties": { "FID": 55, "StopName": "Providence Road", "LineAbbr": "102", "Lon": -75.28863, "Lat": 39.921699 }, "geometry": { "type": "Point", "coordinates": [ -75.2886304418994, 39.921698794724698 ] } },
{ "type": "Feature", "properties": { "FID": 56, "StopName": "Magnolia Avenue", "LineAbbr": "102", "Lon": -75.286986, "Lat": 39.919563 }, "geometry": { "type": "Point", "coordinates": [ -75.286986176911995, 39.919562805225297 ] } },
{ "type": "Feature", "properties": { "FID": 57, "StopName": "North Street", "LineAbbr": "102", "Lon": -75.285491, "Lat": 39.917522 }, "geometry": { "type": "Point", "coordinates": [ -75.285490609110596, 39.917521562689799 ] } },
{ "type": "Feature", "properties": { "FID": 58, "StopName": "Bartram Avenue", "LineAbbr": "102", "Lon": -75.284171, "Lat": 39.914635 }, "geometry": { "type": "Point", "coordinates": [ -75.284170590561104, 39.914634742625601 ] } },
{ "type": "Feature", "properties": { "FID": 59, "StopName": "Andrews Avenue", "LineAbbr": "102", "Lon": -75.281899, "Lat": 39.911686 }, "geometry": { "type": "Point", "coordinates": [ -75.281899462474797, 39.9116862659302 ] } },
{ "type": "Feature", "properties": { "FID": 60, "StopName": "MacDade Boulevard", "LineAbbr": "102", "Lon": -75.280904, "Lat": 39.910305 }, "geometry": { "type": "Point", "coordinates": [ -75.280904483802104, 39.910304918944199 ] } },
{ "type": "Feature", "properties": { "FID": 61, "StopName": "Sharon Hill", "LineAbbr": "102", "Lon": -75.278314, "Lat": 39.906673 }, "geometry": { "type": "Point", "coordinates": [ -75.278314, 39.906673 ] } }
]
}
